City_ID,City,Lat,Lng,Max Temp,Humidity,Cloudiness,Wind Speed,Country,Date
0,grytviken,-54.2811,-36.5092,-5.52,89,100,2.94,GS,1722738395
1,shali,43.1481,45.9019,20.63,53,15,1.7,RU,1722738983
2,puerto cabezas,14.0351,-83.3888,25.76,87,61,2.87,NI,1722738803
3,kirsanov,52.6549,42.7224,18.82,57,100,2.3,RU,1722738734
4,garoowe,8.4054,48.4845,23.16,65,99,9.82,SO,1722738987
5,tiksi,71.6872,128.8694,8.63,70,100,1.47,RU,1722738510
6,waitangi,-43.9535,-176.5597,9.34,85,64,4.02,NZ,1722738460
7,afaahiti,-17.75,-149.2833,24.93,77,96,6.87,PF,1722738990
8,karratha,-20.7377,116.8463,22.68,54,0,6.97,AU,1722738991
9,flying fish cove,-10.4217,105.6791,26.82,78,75,5.66,CX,1722738992
10,qaqortoq,60.7167,-46.0333,6.65,81,94,1.62,GL,1722738993
11,isafjordur,66.0755,-23.124,7.26,95,100,4.67,IS,1722738995
12,kirkwall,58.9848,-2.9587,11.03,93,64,2.57,GB,1722738996
13,port-aux-francais,-49.35,70.2167,2.82,85,82,5.24,TF,1722738998
14,blackmans bay,-43.0167,147.3167,13.74,66,39,0.45,AU,1722738999
15,tralee,52.2704,-9.7026,12.84,86,100,2.01,IE,1722739000
16,labrador city,52.9463,-66.9114,15.95,64,40,4.92,CA,1722739001
17,west island,-12.1568,96.8225,27.99,69,41,3.6,CC,1722738427
18,ushuaia,-54.8,-68.3,-1.19,59,75,2.06,AR,1722738488
19,nar'yan-mar,67.6713,53.087,10.83,70,67,8.65,RU,1722739007
20,onguday,50.75,86.15,22.04,55,19,1.28,RU,1722739008
21,russkaya polyana,49.417,31.9201,15.71,97,100,5.16,UA,1722739009
22,port alfred,-33.5906,26.891,18.43,46,99,0.89,ZA,1722739010
23,fortuna foothills,32.6578,-114.4119,44.05,19,0,4.12,US,1722739011
24,adamstown,-25.066,-130.1015,21.21,72,100,7.04,PN,1722739013
25,ust-nera,64.5667,143.2,16.52,41,75,2.89,RU,1722738450
26,la trinitaria,16.1167,-92.05,15.73,91,99,3.28,MX,1722739015
27,vorgashor,67.5833,63.95,13.94,61,75,7.69,RU,1722739016
28,waddan,29.1614,16.139,26.54,35,0,3.66,LY,1722739017
29,udachny,66.4167,112.4,21.56,40,68,3.96,RU,1722738466
30,margaret river,-33.95,115.0667,13.74,74,7,4.33,AU,1722738468
31,potosi,-19.5836,-65.7531,4.62,18,0,0.96,BO,1722738850
32,lingyuan,41.24,119.4011,23.19,94,100,2.21,CN,1722739022
33,tura,25.5198,90.2201,26.0,91,32,2.12,IN,1722738479
34,akrehamn,59.2667,5.1833,14.67,88,100,6.69,NO,1722739025
35,hailar,49.2,119.7,26.73,60,15,6.14,CN,1722739026
36,port lincoln,-34.7333,135.8667,12.53,71,100,3.79,AU,1722739027
37,rusape,-18.5278,32.1284,8.72,36,5,1.86,ZW,1722739028
38,nguigmi,14.2495,13.1092,27.09,66,74,7.17,NE,1722739029
39,invercargill,-46.4,168.35,10.01,73,99,1.79,NZ,1722738505
40,edinburgh of the seven seas,-37.0676,-12.3116,12.66,84,100,15.84,SH,1722739031
41,constantia,44.1833,28.65,20.38,65,0,6.42,RO,1722738953
42,wewak,-3.5534,143.6268,27.48,81,100,2.23,PG,1722739034
43,bilariaganj,26.1986,83.2333,28.59,75,71,8.46,IN,1722739035
44,morehead city,34.7229,-76.726,29.0,89,75,5.66,US,1722738382
45,hermanus,-34.4187,19.2345,14.89,77,100,11.05,ZA,1722739037
46,riberalta,-10.9833,-66.1,26.15,55,31,1.56,BO,1722739038
47,kiyawa,11.7828,9.6125,23.12,83,95,3.31,NG,1722739039
48,stanley,54.868,-1.6985,11.55,89,97,2.09,GB,1722739040
49,tual,-5.6667,132.75,25.3,88,50,9.42,ID,1722739041
50,franklin,39.9667,-83.0166,23.75,93,0,2.06,US,1722738500
51,qarauyl,48.9451,79.255,23.19,52,87,1.79,KZ,1722739044
52,albany,42.6001,-73.9662,23.64,70,100,0.55,US,1722738318
53,hithadhoo,-0.6,73.0833,27.66,73,98,1.96,MV,1722738472
54,melilla,35.2937,-2.9383,24.21,83,100,1.54,ES,1722739047
55,grajau,-5.8194,-46.1386,23.04,46,8,2.01,BR,1722739048
56,valvedditturai,9.8167,80.1667,28.79,76,100,3.64,LK,1722739049
57,puerto natales,-51.7236,-72.4875,1.46,99,100,1.46,CL,1722739050
58,enewetak,11.3474,162.3373,28.7,73,84,1.42,MH,1722739051
59,island harbour,50.724,-1.2758,13.85,79,100,1.34,GB,1722739052
60,siwa oasis,29.2041,25.5195,26.79,50,0,2.63,EG,1722739053
61,kapuskasing,49.4169,-82.4331,17.05,72,40,1.54,CA,1722738518
62,olonkinbyen,70.9221,-8.7187,4.88,99,99,4.0,SJ,1722739056
63,longyearbyen,78.2186,15.6401,9.91,100,75,2.57,SJ,1722739057
64,lompoc,34.6391,-120.4579,17.14,92,75,3.6,US,1722739058
65,abqaiq,25.9371,49.6776,33.14,15,99,4.49,SA,1722739059
66,pitimbu,-7.4706,-34.8086,22.33,84,24,5.46,BR,1722739060
67,thompson,55.7435,-97.8558,16.09,55,40,1.54,CA,1722739061
68,remire-montjoly,4.9167,-52.2667,25.02,94,0,0.0,GF,1722738471
69,paulo afonso,-9.4061,-38.2147,21.16,88,20,2.57,BR,1722739063
70,st. john's,47.5649,-52.7093,17.93,84,0,8.23,CA,1722739065
71,aykhal,66.0,111.5,20.65,39,87,4.39,RU,1722738793
72,kachug,53.9606,105.8817,23.05,53,66,1.47,RU,1722739067
73,aswan,24.0934,32.907,32.76,40,69,4.2,EG,1722739068
74,vallehermoso,10.3349,123.3259,29.7,71,100,3.17,PH,1722739069
75,grand-popo,6.2804,1.8225,23.61,91,78,3.91,BJ,1722739070
76,taungoo,18.9333,96.4333,26.34,91,100,3.38,MM,1722739071
77,ta`u,-14.2336,-169.5144,26.84,60,1,2.81,AS,1722739072
78,klyuchi,52.2667,79.1667,25.32,48,2,4.29,RU,1722739074
79,new norfolk,-42.7826,147.0587,14.4,51,31,4.46,AU,1722739075
80,bredasdorp,-34.5322,20.0403,10.13,72,100,7.05,ZA,1722739076
81,fale old settlement,-9.3852,-171.2468,27.96,77,100,6.23,TK,1722738511
82,geraldton,-28.7667,114.6,14.23,72,0,5.14,AU,1722739078
83,ola,59.5833,151.2833,16.02,48,1,2.92,RU,1722738524
84,hobyo,5.3505,48.5268,24.37,84,100,9.18,SO,1722739080
85,puerto ayora,-0.7393,-90.3518,19.75,93,77,3.43,EC,1722739081
86,afua,-0.1567,-50.3867,23.52,93,40,2.01,BR,1722739082
87,mount isa,-20.7333,139.5,23.87,41,0,6.17,AU,1722739084
88,brcko,44.8728,18.8083,15.43,50,3,1.0,BA,1722739085
89,qamdo,31.1667,97.2333,14.62,56,11,1.79,CN,1722739086
90,coron,11.9986,120.2043,29.62,71,66,3.21,PH,1722739087
91,antsiranana,-12.2787,49.2917,20.23,61,5,6.02,MG,1722739088
92,bilibino,68.0546,166.4372,10.03,57,100,1.43,RU,1722739089
93,vredendal,-31.6683,18.5012,12.78,80,100,6.27,ZA,1722739090
94,georgetown,5.4112,100.3354,27.97,61,20,3.6,MY,1722738515
95,lihue,21.9789,-159.3672,28.77,64,100,5.66,US,1722739092
96,college,64.8569,-147.8028,14.99,85,75,1.54,US,1722738504
97,menominee,45.1078,-87.6143,23.25,78,0,0.0,US,1722739095
98,coquimbo,-29.9533,-71.3436,11.85,89,75,2.06,CL,1722739058
99,colonia,50.9333,6.95,19.34,86,20,1.54,DE,1722739098
100,teruel,40.6667,-0.6667,17.2,57,0,0.64,ES,1722738967
101,zakynthos,37.7914,20.8953,21.68,64,0,0.0,GR,1722739100
102,keflavik,64.0049,-22.5624,11.95,76,75,8.75,IS,1722739101
103,whitehorse,60.7161,-135.0538,18.43,42,75,3.6,CA,1722739102
104,bethel,41.3712,-73.414,23.44,90,40,0.0,US,1722739103
105,chibougamau,49.9168,-74.3659,18.79,59,0,4.63,CA,1722738825
106,brisas de zicatela,15.8369,-97.0419,25.54,87,100,3.14,MX,1722739106
107,villa regina,-39.1,-67.0667,10.18,49,100,3.68,AR,1722738995
108,fundao,-19.9341,-40.4047,20.85,94,98,0.55,BR,1722739108
109,kodiak,57.79,-152.4072,13.73,72,100,5.14,US,1722739039
110,vernon,50.2581,-119.2691,35.2,27,52,1.03,CA,1722739112
111,badger,64.8,-147.5333,14.95,81,75,1.54,US,1722739113
112,alotau,-10.3069,150.4462,24.42,83,98,3.09,PG,1722739114
113,port mathurin,-19.6833,63.4167,21.64,73,80,4.94,MU,1722739115
114,iqaluit,63.7506,-68.5145,4.85,80,75,7.72,CA,1722739116
115,lerwick,60.1545,-1.1494,9.0,86,4,2.57,GB,1722739118
116,hamilton,39.1834,-84.5333,25.02,84,20,0.0,US,1722738864
117,nyagan,62.1406,65.3936,18.51,76,84,1.48,RU,1722739120
118,sao felix do xingu,-6.6447,-51.995,22.39,46,6,0.99,BR,1722739122
119,slobodskoy,58.7322,50.1772,15.36,93,71,1.79,RU,1722739123
120,jinghong,21.991,100.7341,23.54,97,100,0.57,CN,1722739124
121,vadso,70.0744,29.7487,10.49,87,100,4.63,NO,1722739126
122,saudarkrokur,65.7461,-19.6394,9.46,88,100,1.81,IS,1722739127
123,slave lake,55.2834,-114.769,18.99,55,0,4.63,CA,1722739128
124,mawlaik,23.6333,94.4167,25.03,96,100,0.93,MM,1722739129
125,wailua homesteads,22.0669,-159.378,28.44,73,100,5.66,US,1722739130
126,iskateley,67.6803,53.1512,10.85,70,66,8.63,RU,1722739131
127,mailsi,29.8003,72.1758,32.69,57,49,6.01,PK,1722739132
128,fortaleza,-3.7227,-38.5247,26.79,83,20,4.12,BR,1722738716
129,tabou,4.423,-7.3528,23.59,85,100,2.93,CI,1722739135
130,ribeira grande,38.5167,-28.7,22.65,90,7,1.79,PT,1722739136
131,quellon,-43.1167,-73.6167,6.99,93,100,2.44,CL,1722739137
132,amos,48.5669,-78.1162,15.91,73,35,2.31,CA,1722739138
133,petropavlovsk-kamchatsky,53.0452,158.6483,22.33,40,0,5.0,RU,1722739139
134,green river,41.5286,-109.4662,32.22,24,81,8.13,US,1722739140
135,knaresborough,54.0091,-1.4685,14.19,87,100,1.34,GB,1722739141
136,ihsaniye,40.6909,29.8347,22.21,36,0,0.89,TR,1722739143
137,tolanaro,-25.0319,46.9987,16.04,94,20,3.09,MG,1722739144
138,buka,40.8108,69.1986,28.22,21,60,3.69,UZ,1722739145
139,vilyuchinsk,52.9306,158.4028,23.15,74,100,3.53,RU,1722739146
140,kavaratti,10.5669,72.642,27.5,80,100,5.22,IN,1722739147
141,lazaro cardenas,17.9583,-102.2,25.38,88,100,2.23,MX,1722739107
142,colby,39.3958,-101.0524,28.33,47,0,3.6,US,1722739149
143,belleville,44.1788,-77.3705,23.92,91,40,3.09,CA,1722739150
144,carnarvon,-24.8667,113.6333,20.88,48,0,5.27,AU,1722739151
145,oeiras do para,-2.0031,-49.8544,22.96,65,2,1.63,BR,1722739153
146,pangody,65.85,74.4859,19.1,84,100,4.93,RU,1722739154
147,nouadhibou,20.931,-17.0347,23.99,88,15,1.54,MR,1722739155
148,ilulissat,69.2167,-51.1,7.01,70,24,0.0,GL,1722739156
149,rio grande,-32.035,-52.0986,14.97,95,86,7.24,BR,1722739157
150,dudinka,69.4058,86.1778,15.27,53,0,6.96,RU,1722739158
151,grand falls-windsor,48.9332,-55.6649,20.84,72,100,3.75,CA,1722739159
152,komsomol'sk,49.0097,33.6455,20.0,85,100,3.99,UA,1722739160
153,gounou gaya,9.6294,15.5132,22.22,96,100,1.86,TD,1722739161
154,zheleznodorozhnyy,55.7503,38.0042,16.31,83,98,1.66,RU,1722739163
155,la ceiba,15.7597,-86.7822,25.9,94,20,1.03,HN,1722739164
156,susuman,62.7833,148.1667,16.77,32,41,2.69,RU,1722739165
157,saint-louis,16.3333,-15.0,27.8,69,100,3.66,SN,1722739166
158,cururupu,-1.8283,-44.8683,22.42,90,0,1.07,BR,1722739167
159,severo-yeniseyskiy,60.3725,93.0408,20.19,45,9,1.9,RU,1722739168
160,camocim,-2.9022,-40.8411,24.67,81,0,6.45,BR,1722739169
161,ashland,40.8167,-82.2665,22.3,95,0,1.94,US,1722738612
162,avarua,-21.2078,-159.775,24.03,50,100,2.06,CK,1722739171
163,saint-philippe,-21.3585,55.7679,17.77,74,0,1.67,RE,1722739173
164,namibe,-15.1961,12.1522,16.24,80,0,3.91,AO,1722738994
165,chonchi,-42.6128,-73.8092,7.84,98,100,0.98,CL,1722739176
166,port blair,11.6667,92.75,28.02,83,75,1.03,IN,1722739177
167,yellowknife,62.456,-114.3525,20.79,49,75,2.57,CA,1722739178
168,iranshahr,27.2025,60.6848,34.19,49,0,0.0,IR,1722739171
169,shakawe,-18.3667,21.85,13.67,15,2,2.2,BW,1722739183
170,brookings,44.3114,-96.7984,27.0,81,0,3.09,US,1722739184
171,atafu village,-8.5421,-172.5159,27.93,78,100,6.49,TK,1722739185
172,cabedelo,-6.9811,-34.8339,22.37,81,5,5.21,BR,1722739186
173,lloydminster,53.2835,-110.0016,19.12,55,100,5.14,CA,1722739187
174,goundam,16.4145,-3.6708,28.44,64,83,3.45,ML,1722739189
175,nova sintra,14.8667,-24.7167,26.39,77,71,1.21,CV,1722739190
176,amga,60.8953,131.9608,21.63,31,17,2.72,RU,1722739192
177,lebu,-37.6167,-73.65,8.34,95,100,3.26,CL,1722739193
178,greymouth,-42.4667,171.2,8.85,70,73,1.8,NZ,1722739194
179,sinabang,2.4803,96.3801,24.9,91,100,2.56,ID,1722739195
180,nemuro,43.3236,145.575,19.24,91,57,5.04,JP,1722739196
181,hammerfest,70.6634,23.6821,16.25,67,0,1.54,NO,1722739197
182,hawaiian paradise park,19.5933,-154.9731,26.04,86,100,3.6,US,1722739198
183,mechanicsville,37.6088,-77.3733,24.49,90,100,3.6,US,1722739200
184,korla,41.7597,86.1469,32.96,20,50,7.24,CN,1722739201
185,berdigestyakh,62.0989,126.6992,22.94,28,39,3.01,RU,1722739202
186,port elizabeth,-33.918,25.5701,17.83,57,0,1.54,ZA,1722739203
187,codrington,-38.2667,141.9667,13.13,63,100,3.01,AU,1722739204
188,capilla de guadalupe,20.8333,-102.5833,15.56,90,100,1.12,MX,1722739205
189,pacific grove,36.6177,-121.9166,19.56,90,75,4.12,US,1722739206
190,pahrump,36.2083,-115.9839,38.24,19,0,4.02,US,1722739208
191,ipilan,8.8431,117.9033,29.18,73,83,1.78,PH,1722739209
192,bandarbeyla,9.4942,50.8122,26.02,65,76,11.32,SO,1722739210
193,san rafael,-34.6177,-68.3301,11.64,32,100,1.92,AR,1722739211
194,uturoa,-16.7333,-151.4333,24.37,74,96,7.6,PF,1722739212
195,vallegrande,-18.4897,-64.1069,10.95,95,2,0.68,BO,1722739213
196,howard springs,-12.497,131.047,28.95,59,96,2.64,AU,1722739214
197,colares,38.7992,-9.4469,19.95,84,0,7.21,PT,1722738938
198,kingston,17.997,-76.7936,29.53,74,20,5.66,JM,1722738884
199,utrik,11.2278,169.8474,28.48,76,5,4.19,MH,1722739217
200,kish,26.5578,54.0194,33.15,79,71,2.06,IR,1722739219
201,wilson,36.1501,-86.2833,25.89,83,0,0.0,US,1722739221
202,yokadouma,3.5167,15.05,20.37,100,100,0.9,CM,1722739222
203,angahuan,19.55,-102.1833,9.8,96,100,0.64,MX,1722739223
204,al ghayzah,16.2079,52.176,25.91,82,58,4.97,YE,1722739224
205,happy valley-goose bay,53.3168,-60.3315,17.17,94,100,4.63,CA,1722739225
206,margate,51.3813,1.3862,17.71,78,100,3.9,GB,1722739226
207,anadyr,64.75,177.4833,9.28,87,100,8.0,RU,1722739227
208,san andres,12.5847,-81.7006,29.01,84,20,1.54,CO,1722739200
209,nizhnesortymskiy,62.4397,71.7603,21.68,65,100,1.45,RU,1722739230
210,genhe,50.7833,121.5167,16.16,96,100,1.35,CN,1722739231
211,quthing,-30.4,27.7003,10.07,36,5,1.77,LS,1722739232
212,sitangkai,4.6628,119.3928,28.58,74,100,5.08,PH,1722739233
213,cabo san lucas,22.8909,-109.9124,31.77,54,40,6.69,MX,1722738944
214,forster,-32.1667,152.5167,19.1,55,82,2.37,AU,1722739235
215,san patricio,28.017,-97.5169,29.94,70,1,4.21,US,1722739236
216,dunhua,43.3725,128.2425,27.37,76,82,3.07,CN,1722739152
217,chui,-33.6971,-53.4616,12.66,85,98,3.96,UY,1722739239
218,jamestown,42.097,-79.2353,21.77,97,37,0.45,US,1722739028
219,kil bhuvanagiri,11.4667,79.6333,30.19,62,100,3.12,IN,1722739241
220,candido de abreu,-24.5669,-51.3333,17.18,65,0,0.92,BR,1722739242
221,tazovsky,67.4667,78.7,15.4,69,85,5.87,RU,1722739243
222,yemetsk,63.4721,41.7941,14.31,96,37,2.26,RU,1722739244
223,toliara,-23.35,43.6667,16.71,84,0,4.36,MG,1722739245
224,ad dawadimi,24.5077,44.3924,26.64,21,100,3.03,SA,1722739246
225,kudahuvadhoo,2.6708,72.8944,27.86,71,27,1.65,MV,1722739247
226,kone,-21.0595,164.8658,22.36,50,0,5.05,NC,1722739249
227,holualoa,19.6228,-155.9522,26.91,83,40,4.63,US,1722739250
228,m'sila,35.7058,4.5419,25.5,45,0,4.03,DZ,1722739251
229,talnakh,69.4865,88.3972,17.66,52,1,4.97,RU,1722739252
230,mufumbwe,-13.6833,24.8,11.36,39,2,2.38,ZM,1722739253
231,syanno,54.8106,29.7069,10.92,91,0,3.07,BY,1722739254
232,luziania,-16.2525,-47.9503,19.83,57,0,1.82,BR,1722739255
233,crane,31.3974,-102.3501,30.9,36,100,3.17,US,1722739256
234,punta arenas,-53.15,-70.9167,1.06,80,100,5.66,CL,1722738624
235,garachico,28.7781,-17.7646,20.06,83,0,6.17,ES,1722739259
236,chatillon-sur-seine,47.8585,4.5738,17.14,91,67,1.36,FR,1722739260
237,port saint john's,-31.6229,29.5448,19.5,26,74,3.71,ZA,1722739261
238,papatowai,-46.5619,169.4708,10.17,59,94,2.41,NZ,1722739262
239,puerto armuelles,8.2833,-82.8667,25.05,86,100,2.24,PA,1722739263
240,ancud,-41.8697,-73.8203,8.59,90,100,5.92,CL,1722739265
241,hirara,24.8,125.2833,33.15,70,40,6.17,JP,1722739266
242,wenling,28.3669,121.36,31.01,73,0,2.92,CN,1722739267
243,fortuna,40.5982,-124.1573,16.07,95,100,2.57,US,1722739269
244,klaksvik,62.2266,-6.589,9.51,95,3,6.28,FO,1722739270
245,sho'rchi,38.0141,67.7899,31.19,19,0,3.6,UZ,1722739271
246,saint-joseph,-21.3667,55.6167,17.21,71,0,1.83,RE,1722739272
247,metkovic,43.0542,17.6483,20.26,85,4,2.35,HR,1722739273
248,okha,53.5739,142.9478,17.73,53,16,3.65,RU,1722739274
249,kolonia,50.9333,6.95,19.34,86,20,1.54,DE,1722738998
250,tamanrasset,22.785,5.5228,26.95,29,0,2.57,DZ,1722739276
251,maryville,35.7565,-83.9705,23.3,95,75,0.0,US,1722739277
252,vorkuta,67.5,64.0,14.53,62,95,7.25,RU,1722739279
253,harar,9.3094,42.1258,15.19,81,100,3.78,ET,1722739146
254,antalaha,-14.9003,50.2788,17.2,74,22,2.92,MG,1722739281
255,severomorsk,69.0689,33.4162,11.22,83,10,1.77,RU,1722739282
256,luganville,-15.5333,167.1667,24.05,81,100,4.48,VU,1722739283
257,gisborne,-38.6533,178.0042,11.43,57,100,2.67,NZ,1722739284
258,saint-pierre,-21.3393,55.4781,17.82,63,0,3.09,RE,1722739285
259,turpan,42.9333,89.1667,39.88,13,91,2.36,CN,1722739287
260,kapa'a,22.0752,-159.319,29.18,70,100,5.66,US,1722739288
261,aasiaat,68.7098,-52.8699,4.39,86,5,3.12,GL,1722739289
262,yaren,-0.5472,166.916,29.56,65,12,5.8,NR,1722739290
263,egilsstadir,65.2653,-14.3948,7.95,93,75,4.63,IS,1722739291
264,kununurra,-15.7667,128.7333,29.99,37,2,4.12,AU,1722739292
265,cabugao,17.7931,120.4578,30.5,76,96,2.1,PH,1722739294
266,santo antonio do ica,-3.1022,-67.9397,23.29,95,51,0.13,BR,1722739296
267,ha giang,22.8333,104.9833,25.63,97,100,0.98,VN,1722739297
268,murudeshwara,14.0943,74.4845,27.78,60,100,4.21,IN,1722739298
269,makokou,0.5738,12.8642,22.09,79,100,2.35,GA,1722739299
270,languyan,5.2618,120.0807,30.41,63,85,3.01,PH,1722739300
271,baganga,7.5739,126.56,29.54,71,100,2.52,PH,1722739301
272,constitucion,-35.3333,-72.4167,9.77,79,100,1.13,CL,1722739302
273,mount pearl,47.5166,-52.7813,17.47,84,0,8.23,CA,1722739019
274,hirs'ke,48.7347,38.4954,21.61,43,79,4.25,UA,1722739305
275,penarth,51.4394,-3.1761,14.73,88,20,2.57,GB,1722739306
276,zheshart,62.0731,49.5733,15.72,93,93,1.73,RU,1722739307
277,bratsk,56.1325,101.6142,14.27,65,17,2.16,RU,1722739308
278,yambio,4.5721,28.3955,19.22,97,11,1.17,SS,1722739310
279,sovetskaya gavan',48.9723,140.2878,18.42,62,34,3.14,RU,1722739311
280,chilecito,-29.1619,-67.4974,10.65,25,100,2.06,AR,1722739312
281,east london,-33.0153,27.9116,21.85,29,95,3.95,ZA,1722739313
282,poltava,49.5937,34.5407,18.69,82,93,3.66,UA,1722739314
283,mount gambier,-37.8333,140.7667,13.6,56,100,1.7,AU,1722739316
284,mahdia,35.5047,11.0622,27.97,66,0,9.11,TN,1722739317
285,port douglas,-16.4833,145.4667,23.27,64,28,6.15,AU,1722739318
286,durban,-29.8579,31.0292,18.21,36,11,3.52,ZA,1722739319
287,saipan,15.1355,145.701,32.39,66,40,7.72,MP,1722739320
288,bikenibeu village,1.3673,173.1241,30.98,66,20,3.6,KI,1722739321
289,polyarnyy,69.1989,33.4478,10.54,87,12,2.18,RU,1722739323
290,tinajo,29.0788,-13.7081,21.49,83,0,9.77,ES,1722739324
291,metlili chaamba,32.2667,3.6333,31.52,22,0,4.12,DZ,1722739326
292,nadym,65.5333,72.5167,19.25,87,100,5.83,RU,1722739327
293,huilong,31.8111,121.655,33.03,64,1,4.9,CN,1722739328
294,camana,-16.6228,-72.7111,15.31,88,100,2.82,PE,1722739329
295,samana,19.2056,-69.3369,25.45,88,53,2.85,DO,1722739330
296,iisalmi,63.5592,27.1907,12.71,97,95,1.81,FI,1722739331
297,akureyri,65.6835,-18.0878,10.96,76,20,1.54,IS,1722739332
298,taksimo,56.3444,114.8794,17.81,80,100,1.14,RU,1722739333
299,kimbe,-5.5502,150.1429,24.71,94,100,3.18,PG,1722739335
300,mejit,10.2753,170.8646,28.38,76,6,4.82,MH,1722739336
301,santana,-0.0583,-51.1817,29.1,79,20,5.14,BR,1722739337
302,zhmerynka,49.037,28.112,14.74,96,100,6.23,UA,1722739338
303,hrebinka,50.1171,32.4361,16.5,95,99,0.55,UA,1722739339
304,sola,-13.8833,167.55,25.52,78,67,10.32,VU,1722739340
305,tsiombe,-25.3,45.4833,16.2,93,10,1.25,MG,1722739341
306,prince rupert,54.3161,-130.3201,17.05,81,0,3.6,CA,1722739248
307,la passe,45.5549,-0.8967,15.13,87,13,0.91,FR,1722739343
308,la'ie,21.6477,-157.9253,29.98,78,37,2.68,US,1722739344
309,usogorsk,63.4106,48.6872,15.79,88,100,3.12,RU,1722739346
310,funafuti,-8.5243,179.1942,31.0,74,40,1.03,TV,1722739347
311,pobugskoye,48.1658,30.5927,18.37,95,79,2.77,UA,1722739348
312,tayga,56.06,85.6197,20.51,91,100,2.99,RU,1722739349
313,mikkeli,61.6886,27.2723,15.08,100,100,0.51,FI,1722739350
314,susanville,40.4163,-120.653,22.12,64,100,1.74,US,1722739351
315,jaguaruana,-4.8339,-37.7811,22.8,63,0,3.94,BR,1722739352
316,baiyin,36.5583,104.2081,25.96,39,10,2.73,CN,1722739353
317,lahaina,20.8783,-156.6825,27.79,82,67,3.65,US,1722739354
318,ust'-barguzin,53.45,108.9833,18.3,66,8,2.06,RU,1722739356
319,malanje,-9.5402,16.341,16.09,77,0,0.97,AO,1722739357
320,kirakira,-10.4544,161.9205,28.05,78,83,5.64,SB,1722739358
321,guerrero negro,27.9769,-114.0611,20.58,84,5,6.6,MX,1722739338
322,dunedin,-45.8742,170.5036,12.11,57,63,0.66,NZ,1722739360
323,hokuto,41.8848,140.639,28.01,89,75,1.54,JP,1722739361
324,bejar,40.3864,-5.7634,24.21,43,0,2.74,ES,1722739362
325,satka,55.0425,59.04,12.6,95,66,2.79,RU,1722739363
326,dobroye,52.8678,39.8109,16.01,84,99,3.95,RU,1722739364
327,hastings,50.8552,0.5729,15.5,77,100,3.81,GB,1722739075
328,kenora,49.8167,-94.4337,18.54,63,20,1.54,CA,1722739368
329,nicoya,10.1483,-85.452,24.33,95,100,0.92,CR,1722739369
330,ciudad guayana,8.3533,-62.6528,26.96,89,76,1.73,VE,1722739370
331,kruisfontein,-34.0033,24.7314,16.6,74,100,7.71,ZA,1722739371
332,as sulayyil,20.4607,45.5779,33.14,34,91,7.59,SA,1722739372
333,tawau,4.2498,117.8871,30.07,69,94,1.5,MY,1722739373
334,pont rouge,48.8833,-72.0825,22.16,59,100,5.9,CA,1722739374
335,roma,43.2128,-75.4557,24.08,93,0,2.06,US,1722739376
336,hadibu,12.65,54.0333,25.3,82,37,11.96,YE,1722739377
337,wellington,-41.2866,174.7756,11.7,66,40,7.2,NZ,1722739180
338,huarmey,-10.0681,-78.1522,16.78,87,6,3.74,PE,1722738954
339,afif,23.9065,42.9172,26.89,31,100,3.65,SA,1722739380
340,garbahaarrey,3.3289,42.2209,23.28,77,99,7.55,SO,1722739381
341,melgar,4.2048,-74.6407,25.06,69,76,1.33,CO,1722739382
342,ghat,24.9647,10.1728,27.51,12,38,0.7,LY,1722739383
343,alofi,-19.0595,-169.9187,26.94,69,40,5.14,NU,1722739384
344,alice springs,-23.7,133.8833,16.75,34,75,2.57,AU,1722739271
345,walvis bay,-22.9575,14.5053,13.94,88,0,1.03,NA,1722739387
346,monrovia,6.3005,-10.7969,23.87,87,100,5.44,LR,1722739388
347,cockburn town,21.4612,-71.1419,28.45,82,36,8.74,TC,1722739389
348,floro,61.5996,5.0328,14.04,88,100,8.75,NO,1722739390
349,selfoss,63.9331,-20.9971,11.58,75,100,9.57,IS,1722739391
350,bandon,51.7469,-8.7425,13.77,84,100,4.13,IE,1722739392
351,waingapu,-9.6567,120.2641,28.78,57,97,5.88,ID,1722739393
352,marsa alam,25.0757,34.8918,33.0,54,80,1.81,EG,1722739394
353,springs,-26.25,28.4,13.16,69,2,5.11,ZA,1722739395
354,kokopo,-4.352,152.2633,28.75,69,99,5.53,PG,1722739397
355,howrah,22.5892,88.3103,30.0,89,75,2.06,IN,1722739398
356,ceyhan,37.0247,35.8175,26.91,86,0,0.22,TR,1722739399
357,general pico,-35.6566,-63.7568,9.66,47,2,2.57,AR,1722739400
358,raffadali,37.4036,13.5331,23.2,82,0,1.68,IT,1722739401
359,smithers,54.7804,-127.1743,28.18,14,0,5.14,CA,1722739402
360,mabaruma,8.2,-59.7833,22.58,100,98,0.58,GY,1722739403
361,nyurba,63.2842,118.3319,22.31,35,100,1.93,RU,1722739404
362,esperantina,-3.9017,-42.2336,23.22,87,96,1.35,BR,1722739405
363,veraval,20.9,70.3667,27.82,86,100,9.12,IN,1722739407
364,beni,0.5,29.4667,16.86,95,35,0.84,CD,1722739408
365,cody,44.5263,-109.0565,31.12,22,0,4.63,US,1722739122
366,lupane,-18.9315,27.807,9.82,26,6,2.85,ZW,1722739410
367,bardai,11.65,7.2333,20.93,90,96,4.47,NG,1722739411
368,liaoyang,41.2719,123.1731,26.18,71,100,5.43,CN,1722739412
369,luderitz,-26.6481,15.1594,13.17,89,91,3.78,NA,1722739413
370,pangoa,-12.1167,-73.0,20.62,88,76,1.53,PE,1722739414
371,santiago de cao,-7.9589,-79.2392,17.07,94,75,3.09,PE,1722739415
372,boende,-0.2167,20.8667,21.56,88,77,0.99,CD,1722739417
373,guinguineo,14.2667,-15.95,26.92,74,100,3.41,SN,1722739419
374,tyukhtet,56.5389,89.3011,23.02,62,26,3.47,RU,1722739421
375,kalabo,-14.97,22.6814,12.97,27,3,2.32,ZM,1722739422
376,kangding,30.0513,101.9603,19.33,91,99,1.77,CN,1722739423
377,pauini,-7.7136,-66.9764,24.69,68,27,0.93,BR,1722739425
378,kimberley,-28.7323,24.7623,17.83,63,93,7.2,ZA,1722739426
379,qujing,25.4833,103.7833,19.63,82,100,2.8,CN,1722739152
380,sao joao da barra,-21.6403,-41.0511,22.96,80,85,5.12,BR,1722739428
381,queanbeyan,-35.35,149.2333,14.09,48,100,2.06,AU,1722739429
382,xique xique,-10.8217,-42.7311,22.99,53,0,8.41,BR,1722739430
383,novyy urgal,51.0736,132.5642,26.89,44,100,0.3,RU,1722739431
384,argostolion,38.1811,20.489,27.08,30,12,1.37,GR,1722739432
385,gorgan,36.8387,54.4348,23.98,88,100,0.0,IR,1722739434
386,ixtapa,20.7,-105.2,25.68,100,75,1.54,MX,1722739435
387,vilyuysk,63.7553,121.6247,23.75,32,14,1.83,RU,1722739437
388,malax,62.9423,21.5731,13.32,100,100,1.03,FI,1722739438
389,verkhnevilyuysk,63.4453,120.3167,23.04,34,74,1.5,RU,1722739440
390,umba,66.6871,34.3429,11.96,77,96,4.65,RU,1722739441
391,les cayes,18.2,-73.75,27.37,78,68,1.92,HT,1722739443
392,katsuren-haebaru,26.3369,127.8719,33.21,69,0,4.12,JP,1722739444
393,kas,36.2018,29.6377,27.2,59,0,1.21,TR,1722739445
394,thinadhoo,0.5333,72.9333,27.7,71,40,1.36,MV,1722739446
395,acarau,-2.8856,-40.12,25.15,81,6,8.1,BR,1722739447
396,trairi,-3.2778,-39.2689,25.15,80,3,5.39,BR,1722739191
397,nago,26.5881,127.9761,33.24,65,4,4.26,JP,1722739449
398,weno,7.4515,151.8468,31.97,84,100,2.57,FM,1722739450
399,kailua-kona,19.6406,-155.9956,28.98,84,40,4.63,US,1722739451
400,menaka,15.9182,2.4022,25.93,75,49,4.76,ML,1722739452
401,whistler,50.1164,-122.9695,21.66,59,3,2.1,CA,1722739454
402,boa viagem,-5.1275,-39.7322,20.24,65,7,0.74,BR,1722739455
403,nikolayevsk-on-amure,53.1406,140.73,23.46,40,45,2.02,RU,1722739456
404,mazatlan,23.2167,-106.4167,30.51,75,40,3.09,MX,1722739458
405,nishinoomote,30.7333,131.0,32.31,84,20,3.09,JP,1722739459
406,tionk essil,12.7856,-16.5217,25.15,91,100,3.88,SN,1722739460
407,santa cruz,-17.8,-63.1667,25.7,78,0,6.69,BO,1722739354
408,tupiza,-21.45,-65.7167,5.36,14,0,3.25,BO,1722739462
409,sattur,9.3667,77.9333,29.47,54,100,1.45,IN,1722739465
410,hajin,34.6927,40.827,28.0,39,0,7.58,SY,1722739466
411,indian hills,39.086,-119.7841,25.58,60,0,1.79,US,1722739467
412,fedorovka,53.6314,62.7078,15.27,83,31,3.45,KZ,1722739468
413,kerikeri,-35.2268,173.9474,14.39,81,100,4.02,NZ,1722739469
414,kirtland,36.7342,-108.3598,33.61,18,0,5.14,US,1722739400
415,xuddur,4.1213,43.8894,20.61,83,100,7.23,SO,1722739471
416,bamboo flat,11.7,92.7167,27.05,89,100,3.09,IN,1722739472
417,tommot,58.9564,126.2925,19.92,65,100,3.17,RU,1722739473
418,ak'ordat,15.5486,37.8867,26.57,70,83,2.31,ER,1722739475
419,quinhamel,11.8833,-15.85,25.05,92,100,5.23,GW,1722739476
420,esil,51.9556,66.4042,19.1,64,99,4.22,KZ,1722739477
421,bantogon,6.5333,124.0333,29.3,71,100,3.8,PH,1722739478
422,machico,32.7,-16.7667,23.34,72,20,7.72,PT,1722739479
423,pozarevac,44.6153,21.1825,15.62,83,29,1.93,RS,1722739480
424,palikir - national government center,6.9248,158.1611,31.41,62,75,4.63,FM,1722739481
425,muravlenko,63.7898,74.523,21.01,71,93,1.18,RU,1722739482
426,baoshan,46.5586,131.4244,24.86,71,80,2.88,CN,1722739483
427,rajin,42.2489,130.3003,20.58,96,100,1.61,KP,1722739485
428,peace river,56.2501,-117.286,22.17,56,100,3.6,CA,1722739486
429,mar del plata,-38.0023,-57.5575,13.01,50,0,5.14,AR,1722739107
430,changji,44.0167,87.3167,33.44,22,0,4.0,CN,1722739488
431,san antonio de pale,-1.4014,5.6325,21.54,81,97,5.38,GQ,1722739489
432,bahir dar,11.5936,37.3908,16.17,95,100,1.11,ET,1722739490
433,linxia chengguanzhen,35.6003,103.2064,23.31,46,1,1.15,CN,1722739491
434,arraial do cabo,-22.9661,-42.0278,22.29,86,0,10.12,BR,1722739492
435,de aar,-30.6497,24.0123,11.87,28,100,3.62,ZA,1722739493
436,kayyerkan,69.3786,87.7439,12.64,67,0,6.83,RU,1722739495
437,paracuru,-3.41,-39.0306,26.73,80,4,6.48,BR,1722739264
438,galliano,29.4422,-90.2992,27.78,83,0,0.0,US,1722739498
439,cuatro cienegas de carranza,26.9833,-102.0833,30.3,35,68,5.23,MX,1722739499
440,kavieng,-2.5744,150.7967,28.51,75,12,6.36,PG,1722739500
441,preobrazheniye,42.9019,133.9064,21.42,75,97,4.15,RU,1722739501
442,ghanzi,-21.5667,21.7833,16.26,24,0,4.22,BW,1722739502
443,hinthada,17.6333,95.4667,29.29,75,91,2.96,MM,1722739503
444,khandyga,62.6667,135.6,20.57,40,16,1.12,RU,1722739504
445,hau-ri,41.2006,129.4703,21.84,97,100,1.02,KP,1722739506
446,minas de marcona,-15.2119,-75.1103,11.03,86,77,4.49,PE,1722739507
447,mitsamiouli,-11.3847,43.2844,24.24,66,37,3.51,KM,1722739508
448,saint-francois,46.4154,3.9054,17.03,95,0,1.03,FR,1722739258
449,lubang,13.8584,120.124,28.52,76,94,4.57,PH,1722739510
450,newman,37.3138,-121.0208,36.27,37,0,2.68,US,1722739511
451,onega,63.9061,38.1404,13.24,88,19,1.69,RU,1722739512
452,mana,5.6592,-53.7767,26.12,84,58,3.29,GF,1722739513
453,ryotsu-minato,38.0833,138.4333,29.63,72,8,0.38,JP,1722739514
454,greenville,35.6127,-77.3663,23.01,98,0,1.54,US,1722739515
455,vila franca do campo,37.7167,-25.4333,20.23,99,0,0.72,PT,1722739518
456,sakaiminato,35.55,133.2333,32.96,74,40,4.12,JP,1722739519
457,winnemucca,40.973,-117.7357,26.03,44,40,2.06,US,1722739420
458,hun,29.1268,15.9477,26.57,33,0,3.79,LY,1722739522
459,wajir,1.7471,40.0573,21.92,78,100,4.25,KE,1722739523
460,moab,38.5733,-109.5498,35.03,33,59,2.87,US,1722739524
461,vegreville,53.5001,-112.0518,20.3,62,100,5.66,CA,1722739525
462,yamada,39.4667,141.95,28.09,75,28,1.91,JP,1722739527
463,aquin,18.2833,-73.4,26.75,80,93,1.4,HT,1722739529
464,laguna,38.421,-121.4238,37.47,14,0,5.66,US,1722739530
465,banff,51.1762,-115.5698,17.65,80,66,2.95,CA,1722739531
466,mogocha,53.7333,119.7667,13.28,94,100,2.48,RU,1722739532
467,nerchinsk,51.9833,116.5833,19.1,91,100,1.08,RU,1722739533
468,praia da vitoria,38.7333,-27.0667,23.2,88,40,2.08,PT,1722739534
469,ambalangoda,6.2355,80.0538,28.32,78,11,6.45,LK,1722739535
470,thunder bay,48.4001,-89.3168,19.99,83,40,1.54,CA,1722739398
471,coyhaique,-45.5752,-72.0662,3.34,96,96,2.49,CL,1722739538
472,molchanovo,57.5817,83.7692,22.68,61,11,2.73,RU,1722739539
473,meget,52.415,104.0494,23.42,49,20,1.95,RU,1722739540
474,xining,36.6167,101.7667,20.33,58,26,1.79,CN,1722739250
475,elek,46.5333,21.25,16.79,80,75,2.5,HU,1722739542
476,tvoroyri,61.5556,-6.8111,10.95,93,15,6.23,FO,1722739543
477,gamba,-2.65,10.0,21.62,75,100,2.82,GA,1722739544
478,luau,-10.7073,22.2247,16.22,34,32,1.58,AO,1722739545
479,nuuk,64.1835,-51.7216,1.34,100,100,1.54,GL,1722739547
480,nizhneudinsk,54.9076,99.0276,21.04,68,56,1.81,RU,1722739548
481,pokaran,26.9167,71.9167,27.9,79,94,5.49,IN,1722739549
482,kenai,60.5544,-151.2583,15.08,74,20,5.14,US,1722739273
483,calchaqui,-29.8877,-60.287,15.17,66,100,5.59,AR,1722739551
484,abashiri,44.0213,144.2697,22.16,83,75,7.2,JP,1722739552
485,ketchikan,55.3422,-131.6461,22.26,49,0,4.12,US,1722739553
486,naze,28.3667,129.4833,31.51,72,1,5.63,JP,1722739359
487,sinjar,36.3209,41.8754,28.13,33,0,2.93,IQ,1722739555
488,mammoth lakes,37.6485,-118.9721,21.4,43,0,6.17,US,1722739556
489,shepetivka,50.1855,27.0637,14.08,96,100,2.7,UA,1722739558
490,sitka,57.0531,-135.33,16.94,67,40,6.17,US,1722739559
491,sao vicente,-23.9631,-46.3919,27.1,63,0,1.71,BR,1722739335
492,pemba,-12.974,40.5178,21.39,88,20,4.12,MZ,1722739561
493,dame-marie,18.5667,-74.4167,27.83,82,30,1.74,HT,1722739562
494,koulikoro,14.0,-7.75,23.4,90,75,3.2,ML,1722739563
495,yarmouth,41.7057,-70.2286,25.56,92,100,7.72,US,1722739564
496,puerto colombia,10.9878,-74.9547,27.05,78,100,3.68,CO,1722739565
497,bulgan,48.8125,103.5347,21.49,59,0,1.31,MN,1722739566
498,sandnessjoen,66.0217,12.6316,15.29,81,9,7.52,NO,1722739568
499,opuwo,-18.0607,13.84,15.22,48,0,1.71,NA,1722739569
500,mahibadhoo,3.7833,72.9667,28.52,70,84,2.75,MV,1722739570
501,guarapari,-20.6667,-40.4975,20.5,87,86,2.44,BR,1722739571
502,anaconda,46.1285,-112.9423,29.55,29,94,1.61,US,1722739572
503,ust'-talovka,50.5493,81.85,23.55,58,2,0.82,KZ,1722739573
504,krutinka,56.0055,71.5113,17.71,76,11,2.98,RU,1722739574
505,yuzhno-kurilsk,44.0306,145.8556,20.91,85,95,3.07,RU,1722739575
506,urangan,-25.3,152.9,20.33,57,58,3.77,AU,1722739576
507,welver,51.6167,7.9667,18.17,95,93,4.14,DE,1722739578
508,kawardha,22.0167,81.25,24.2,91,100,4.71,IN,1722739579
509,papao,-17.75,-149.55,25.82,79,81,7.55,PF,1722739580
510,daru,-9.0763,143.2092,24.42,82,100,7.17,PG,1722739581
511,magistral'nyy,56.1725,107.4458,18.89,77,92,0.51,RU,1722739582
512,tianchang,37.9981,114.0156,34.28,44,94,2.04,CN,1722739583
513,inhambane,-23.865,35.3833,19.08,88,0,3.13,MZ,1722739584
514,malkinia gorna,52.6922,22.0284,11.61,85,6,1.41,PL,1722739585
515,broome,42.2506,-75.833,21.49,97,74,1.25,US,1722739586
516,ma'rib,15.4591,45.3253,28.43,43,97,1.73,YE,1722739587
517,dhrangadhra,22.9833,71.4667,28.55,75,100,7.61,IN,1722739589
518,kitangari,-10.65,39.3333,16.26,99,91,1.53,TZ,1722739590
519,al kharijah,25.4514,30.5464,29.67,23,2,2.59,EG,1722739591
520,gadzhiyevo,69.2551,33.3362,10.56,88,11,2.47,RU,1722739592
521,ardakan,32.31,54.0175,34.66,16,63,1.67,IR,1722739594
522,pemangkat,1.1667,108.9667,29.3,68,12,1.73,ID,1722739595
523,kilindoni,-7.9139,39.6668,24.6,72,10,5.3,TZ,1722739596
524,kiruna,67.8557,20.2251,12.51,88,75,1.03,SE,1722739597
525,lincoln city,44.9582,-124.0179,18.83,88,100,6.71,US,1722739354
526,usinsk,65.9939,57.5281,12.38,90,100,9.39,RU,1722739600
527,ust'-uda,54.1742,103.0304,22.54,59,36,2.61,RU,1722739601
528,maun,-19.9833,23.4167,13.93,29,3,1.08,BW,1722739602
529,dolinsk,47.35,142.8,12.2,97,100,6.91,RU,1722739603
530,robertsport,6.7533,-11.3686,25.13,85,100,6.2,LR,1722739604
531,corridonia,43.2511,13.5088,20.08,83,14,1.93,IT,1722739605
532,roseburg north,43.2645,-123.3033,25.63,66,100,1.64,US,1722739607
533,kuanda,56.3161,116.0806,17.22,74,100,2.43,RU,1722739608
534,lashio,22.9333,97.75,22.51,96,100,0.74,MM,1722739609
535,haiku-pauwela,20.9219,-156.3051,26.81,76,40,9.26,US,1722739610
536,otofuke,42.9917,143.2003,29.53,70,29,1.53,JP,1722739611
537,bliss corner,41.6118,-70.9384,25.25,93,20,6.26,US,1722739612
538,santa isabel,-23.3156,-46.2214,18.84,68,0,0.76,BR,1722739613
539,dolisie,-4.1997,12.6739,17.27,89,16,2.01,CG,1722739614
540,kasongo-lunda,-6.4667,16.8167,20.11,57,1,1.02,CD,1722739615
541,hilo,19.7297,-155.09,26.16,94,100,3.6,US,1722739617
542,timimoun,29.2639,0.231,32.21,12,0,2.57,DZ,1722739618
543,safi,32.1667,-8.8333,21.5,70,0,4.33,MA,1722739619
544,canutama,-6.5339,-64.3831,28.32,51,100,0.09,BR,1722739620
545,chelm,51.1431,23.4716,13.28,82,1,2.48,PL,1722739621
546,westford,42.5793,-71.4378,25.17,93,100,2.36,US,1722739427
547,lorengau,-2.0226,147.2712,27.81,83,79,4.67,PG,1722739623
548,touros,-5.1989,-35.4608,22.25,81,0,5.43,BR,1722739624
549,grootfontein,-19.5667,18.1167,11.76,43,0,1.54,NA,1722739525
550,ndola,-12.9587,28.6366,12.62,42,19,2.75,ZM,1722739626
551,magalia,39.8121,-121.5783,31.75,52,9,1.48,US,1722739628
552,kamina,-8.7386,24.9906,16.41,35,70,1.61,CD,1722739629
553,okhotsk,59.3833,143.3,17.77,62,5,2.17,RU,1722739630
554,kendari,-3.945,122.4989,30.49,56,26,1.24,ID,1722739631
555,gus'-khrustal'nyy,55.6111,40.6519,14.67,89,97,1.4,RU,1722739632
556,richards bay,-28.783,32.0377,17.94,85,0,5.55,ZA,1722739633
557,marrakesh,31.6315,-8.0083,29.08,44,0,2.06,MA,1722739634
558,mossendjo,-2.9506,12.7261,16.71,92,11,1.89,CG,1722739635
559,sibiti,-3.6819,13.3499,17.11,85,4,1.85,CG,1722739636
560,northam,51.0333,-4.2167,14.25,92,100,2.54,GB,1722739637
561,yerofey pavlovich,53.9667,121.9667,16.01,67,100,4.26,RU,1722739639
562,ad dabbah,18.05,30.95,29.22,61,98,3.68,SD,1722739640
563,bolobo,-2.1667,16.2333,24.65,50,81,1.42,CD,1722739641
564,maintirano,-18.0667,44.0167,19.31,85,50,2.89,MG,1722739642
565,al jawf,29.5,38.75,22.95,44,3,1.23,SA,1722739643
566,acapulco de juarez,16.8634,-99.8901,28.9,74,100,4.63,MX,1722739623
567,kilinochchi,9.3961,80.3982,29.04,71,100,2.85,LK,1722739645
